{
  "query": "SELECT id, name, latitude, longitude FROM stores ORDER BY name;",
  "command": "mysql --batch --raw --column-names --default-character-set=utf8mb4 --host gateway02.us-east-1.prod.aws.tidbcloud.com --port 4000 --user TRWPPSjpVsMrzts.root --database HH4sKdeJGjocgFW8dJxnCN --execute SELECT id, name, latitude, longitude FROM stores ORDER BY name;",
  "rows": [
    {
      "id": "3",
      "name": "AppleGreen Balbriggan",
      "latitude": "53.6076227",
      "longitude": "-6.1991969"
    },
    {
      "id": "5",
      "name": "Millfield Groceries",
      "latitude": "53.6100000",
      "longitude": "-6.1820000"
    },
    {
      "id": "2",
      "name": "Open All Ours",
      "latitude": "53.6101049",
      "longitude": "-6.1841258"
    },
    {
      "id": "1",
      "name": "Spar Balbriggan",
      "latitude": "53.6108000",
      "longitude": "-6.1836000"
    },
    {
      "id": "4",
      "name": "The Hamlet Bar",
      "latitude": "53.6120000",
      "longitude": "-6.1840000"
    },
    {
      "id": "30001",
      "name": "Treasure Bowl Balbriggan",
      "latitude": "NULL",
      "longitude": "NULL"
    }
  ],
  "messages": [],
  "stdout": "id\tname\tlatitude\tlongitude\n3\tAppleGreen Balbriggan\t53.6076227\t-6.1991969\n5\tMillfield Groceries\t53.6100000\t-6.1820000\n2\tOpen All Ours\t53.6101049\t-6.1841258\n1\tSpar Balbriggan\t53.6108000\t-6.1836000\n4\tThe Hamlet Bar\t53.6120000\t-6.1840000\n30001\tTreasure Bowl Balbriggan\tNULL\tNULL\n",
  "stderr": "",
  "execution_time_ms": 411
}